{
  "marker": [
    {
      "title": "現在地",
      "position": {
        "lat": 35.617325,
        "lng": 139.564624
      },
      "icon": "current.svg"
    },
    {
      "title": "ガスト",
      "time": "10:00 ~ 19:00",
      "position": {
        "lat": 35.616463,
        "lng": 139.544759
      },
      "icon": "food.svg"
    },
    {
      "title": "ドトール",
      "time": "10:00 ~ 19:00",
      "position": {
        "lat": 35.615218,
        "lng": 139.542351
      },
      "icon": "food.svg"
    },
    {
      "title": "カフェ",
      "time": "10:00 ~ 19:00",
      "position": {
        "lat": 35.620048,
        "lng": 139.561672
      },
      "icon": "food.svg"
    },
    {
      "title": "ジョナサン",
      "time": "10:00 ~ 19:00",
      "position": {
        "lat": 35.612794,
        "lng": 139.53965
      },
      "icon": "food.svg"
    },
    {
      "title": "喫茶店",
      "time": "10:00 ~ 19:00",
      "position": {
        "lat": 35.622104,
        "lng": 139.550595
      },
      "icon": "food.svg"
    },
    {
      "title": "マクドナルド",
      "time": "10:00 ~ 19:00",
      "position": {
        "lat": 35.621952,
        "lng": 139.549783
      },
      "icon": "food.svg"
    },
    {
      "title": "モコモコシップ",
      "time": "24時間",
      "position": {
        "lat": 35.616292,
        "lng": 139.564151
      },
      "icon": "karaoke.svg"
    },
    {
      "title": "ケンタッキー",
      "time": "10:00 ~ 19:00",
      "position": {
        "lat": 35.616577,
        "lng": 139.564022
      },
      "icon": "food.svg"
    },
    {
      "title": "モコモコ",
      "time": "24時間",
      "position": {
        "lat": 35.618014,
        "lng": 139.566869
      },
      "icon": "karaoke.svg"
    },
    {
      "title": "喫茶店",
      "time": "10:00 ~ 19:00",
      "position": {
        "lat": 35.618705,
        "lng": 139.56245
      },
      "icon": "food.svg"
    },
    {
      "title": "トヨタレンタリース横浜向ヶ丘駅前店",
      "time": "8:00 ~ 21:00",
      "position": {
        "lat": 35.616221,
        "lng": 139.564019
      },
      "icon": "car.svg"
    },
    {
      "title": "カレコ・カーシェアリングクラブ：リパーク向ヶ丘遊園南口第２",
      "time": "24時間",
      "position": {
        "lat": 35.617169,
        "lng": 139.565639
      },
      "icon": "car.svg"
    },
    {
      "title": "カレコ・カーシェアリングクラブ：リパーク登戸第６",
      "time": "24時間",
      "position": {
        "lat": 35.618604,
        "lng": 139.561599
      },
      "icon": "car.svg"
    },
    {
      "title": "トヨタレンタカー登戸駅前",
      "time": "8:00 ~ 20:00",
      "position": {
        "lat": 35.621343,
        "lng": 139.570585
      },
      "icon": "car.svg"
    },
    {
      "title": "ニッポンレンタカー 登戸駅前営業所",
      "time": "7:00 ~ 22:00",
      "position": {
        "lat": 35.621397,
        "lng": 139.569685
      },
      "icon": "car.svg"
    },
    {
      "title": "ニコニコレンタカー 川崎宿河原店",
      "time": "9:00 ~ 21:00",
      "position": {
        "lat": 35.616325,
        "lng": 139.583024
      },
      "icon": "car.svg"
    },
    {
      "title": "ニコニコレンタカーYH川崎菅生店",
      "time": "9:00 ~ 21:00",
      "position": {
        "lat": 35.596139,
        "lng": 139.557166
      },
      "icon": "car.svg"
    },
    {
      "title": "カースタレンタカー百合ヶ丘店",
      "time": "8:00 ~ 21:00",
      "position": {
        "lat": 35.613065,
        "lng": 139.521598
      },
      "icon": "car.svg"
    },
    {
      "title": "コワーキングスペース喜多見",
      "time": "14:00 ~ 20:00",
      "position": {
        "lat": 35.638716,
        "lng": 139.586573
      },
      "icon": "co-working-space.svg"
    },
    {
      "title": "nokutica /ノクチカ（シェアオフィス、レンタルスペース、コワーキングスペース）",
      "time": "10:00 ~ 18:00",
      "position": {
        "lat": 35.600761,
        "lng": 139.608958
      },
      "icon": "co-working-space.svg"
    },
    {
      "title": "FUGLEN COFFEE ROASTERS",
      "time": "9:00 ~ 18:00",
      "position": {
        "lat": 35.62142659458812,
        "lng": 139.57189709286556
      },
      "icon": "food.svg"
    }
  ]
}